~Version ---------------------------------------------------
VERS.        2.0 : CWLS log ASCII Standard -VERSION 2.0
WRAP.         NO : One Line per Depth Step
CREA. 02-08-2006 : LAS File Creation Date (MM-DD-YYYY)
~Well ------------------------------------------------------
STRT.F          10180.0 : START DEPTH
STOP.F          10414.0 : STOP DEPTH
STEP.F              1.0 : STEP
NULL.           -999.25 : NULL VALUE
COMP.        Cramer Oil : COMPANY
WELL.      #36-16 State : WELL
LOC .  SE SE 36-47N-71W : LOCATION
CNTY.          Campbell : COUNTY
FLD .                   : FIELD
STAT.           Wyoming : STATE
CTRY.            U.S.A. : COUNTRY
DATE.             11/91 : COMPLETION DATE (MM/YY)
API . 49-005-30258-0000 : API NUMBER
SRVC.                   : SERVICE COMPANY
~Curve Information -----------------------------------------
DEPT.F     : 1 DEPTH
DT  .US/F  : 2 SONIC DELTA-T
RESD.OHMM  : 3 DEEP RESISTIVITY
SP  .MV    : 4 SP CURVE
GR  .GAPI  : 5 GAMMA RAY
~Params ----------------------------------------------------
BHT .DEGF 194.0 : BOTTOM HOLE TEMPERATURE
RMF .OHMM 0.441 : MUD FILTRATE RESISTIVITY
RMFT.DEGF  68.0 : MEASURE TEMPERATURE OF RMF
EKB .F   4642.0 : ELEVATION KELLY BUSHING
SECT.        36 : SECTION
TOWN.       47N : TOWNSHIP
RANG.       71W : RANGE
~Other -----------------------------------------------------
~ASCII -----------------------------------------------------
# ...
 10321.00000   68.00000   16.10000   95.50000   18.00000
 10322.00000   66.90000   17.50000   95.50000   19.00000
 10323.00000   66.70000   18.00000   95.50000   17.00000
 10324.00000   66.60000   18.30000   95.50000   17.00000
 10325.00000   66.00000   18.30000   95.70000   17.00000
 10326.00000   65.00000   18.30000   96.50000   17.00000
 10327.00000   64.40000   18.30000   96.70000   17.00000
 10328.00000   64.00000   18.20000   96.90000   18.00000
 10329.00000   64.60000   17.40000   97.10000   22.00000
 10330.00000   64.70000   16.30000   97.10000   22.00000
 10331.00000   64.40000   15.40000   96.70000   21.00000
 10332.00000   64.40000   14.00000   95.90000   17.00000
 10333.00000   65.50000   12.70000   95.10000   14.00000
 10334.00000   67.40000   11.00000   94.80000   13.00000
 10335.00000   69.30000    9.00000   94.80000   18.00000
 10336.00000   70.90000    7.50000   94.80000   19.00000
 10337.00000   72.40000    6.70000   94.80000   20.00000
 10338.00000   73.30000    6.10000   95.50000   20.00000
 10339.00000   73.70000    5.70000   96.30000   18.00000
 10340.00000   73.80000    5.60000   97.10000   17.00000
 10341.00000   73.40000    5.30000   98.10000   17.00000
 10342.00000   73.40000    5.00000   99.10000   16.00000
 10343.00000   74.40000    4.50000   99.50000   14.00000
 10344.00000   75.40000    4.00000   99.90000   15.00000
 10345.00000   75.20000    3.50000  100.10000   19.00000
 10346.00000   72.60000    3.20000  100.10000   24.00000
 10347.00000   71.60000    2.80000  100.10000   24.00000
 10348.00000   72.00000    2.50000   99.90000   19.00000
 10349.00000   74.30000    2.20000   99.90000   22.00000
 10350.00000   74.60000    1.94000  100.10000   24.00000
 10351.00000   74.70000    1.72000  101.90000   22.00000
 10352.00000   72.30000    1.59000  102.10000   20.00000
 10353.00000   71.90000    1.50000  103.90000   17.00000
 10354.00000   75.50000    1.43000  104.90000   16.00000
 10355.00000   77.60000    1.37000  105.70000   16.00000
 10356.00000   78.30000    1.34000  106.10000   16.00000
 10357.00000   75.80000    1.34000  106.30000   16.00000
 10358.00000   73.80000    1.38000  106.50000   17.00000
 10359.00000   71.60000    1.59000  106.50000   17.00000
 10360.00000   69.30000    2.00000  106.50000   18.00000
 10361.00000   67.10000    2.90000  106.50000   30.00000
 10362.00000   65.00000    3.30000  106.50000   36.00000
 10363.00000   64.00000    3.80000  105.90000   34.00000
 10364.00000   63.80000    4.50000  105.30000   33.00000
 10365.00000   63.90000    5.00000  104.70000   36.00000
 10366.00000   65.10000    5.30000  104.70000   37.00000
 10367.00000   65.50000    5.50000  104.50000   30.00000
 10368.00000   64.30000    5.60000  104.50000   24.00000
 10369.00000   64.40000    5.60000  104.50000   25.00000
 10370.00000   66.00000    5.70000  104.50000   29.00000
 10371.00000   66.00000    5.70000  104.70000   32.00000
 10372.00000   64.60000    5.70000  105.90000   33.00000
 10373.00000   64.90000    5.70000  106.90000   32.00000
 10374.00000   65.00000    5.80000  109.10000   32.00000
 10375.00000   62.60000    6.30000  109.70000   27.00000
 10376.00000   60.40000    7.20000  108.70000   22.00000
 10377.00000   59.30000    8.10000  107.90000   19.00000
 10378.00000   59.30000    8.30000  107.30000   21.00000
 10379.00000   62.60000    8.30000  106.90000   27.00000
 10380.00000   63.60000    8.10000  106.70000   27.00000
 10381.00000   61.50000    8.00000  106.70000   27.00000
 10382.00000   61.70000    8.80000  106.50000   27.00000
 10383.00000   62.30000   10.00000  105.90000   30.00000
 10384.00000   61.90000   10.10000  105.10000   34.00000
 10385.00000   62.30000    9.20000  102.70000   38.00000
 10386.00000   63.20000    8.60000   87.60000   38.00000
 10387.00000   63.50000    8.50000   78.80000   40.00000
 10388.00000   63.50000    9.40000   76.50000   38.00000
 10389.00000   62.70000   11.40000   76.50000   33.00000
 10390.00000   60.00000   14.80000   76.50000   27.00000
 10391.00000   57.00000   19.00000   76.50000   27.00000
 10392.00000   54.00000   40.00000   76.50000   27.00000
 10393.00000   49.10000   89.00000   76.50000   23.00000
 10394.00000   47.20000  134.00000   75.50000   22.00000
 10395.00000   46.70000  220.00000   74.10000   25.00000
 10396.00000   47.10000  193.00000   72.10000   31.00000
 10397.00000   47.60000  122.00000   70.50000   33.00000
 10398.00000   48.80000   96.00000   68.90000   35.00000
 10399.00000   49.80000   81.00000   67.50000    5.00000
 10400.00000   50.80000   75.00000   66.70000    0.00000
 10401.00000   51.10000   75.00000   65.70000    0.00000
 10402.00000   50.20000   97.00000   65.10000    0.00000
 10403.00000   49.00000  167.00000   64.10000    0.00000
 10404.00000   48.40000  315.00000   63.30000    0.00000
 10405.00000   50.60000 1693.00000   63.10000    0.00000
 10406.00000   50.70000 1874.00000   62.70000    0.00000
 10407.00000   50.40000 1874.00000   62.50000    0.00000
 10408.00000   49.90000 1874.00000   62.50000    0.00000
 10409.00000   49.70000  591.00000   62.50000    0.00000
 10410.00000   49.60000  208.00000   62.50000    0.00000
 10411.00000   51.50000  134.00000   62.50000    0.00000
 10412.00000   52.50000  116.00000   62.90000    0.00000
 10413.00000   53.20000  113.00000   64.30000    0.00000
 10414.00000   54.10000  156.00000   65.90000    0.00000
