~Version ---------------------------------------------------
VERS.        2.0 : CWLS log ASCII Standard -VERSION 2.0
WRAP.         NO : One Line per Depth Step
CREA. 02-08-2006 : LAS File Creation Date (MM-DD-YYYY)
~Well ------------------------------------------------------
STRT.F          10180.0 : START DEPTH
STOP.F          10414.0 : STOP DEPTH
STEP.F              1.0 : STEP
NULL.           -999.25 : NULL VALUE
COMP.        Cramer Oil : COMPANY
WELL.      #36-16 State : WELL
LOC .  SE SE 36-47N-71W : LOCATION
CNTY.          Campbell : COUNTY
FLD .                   : FIELD
STAT.           Wyoming : STATE
CTRY.            U.S.A. : COUNTRY
DATE.             11/91 : COMPLETION DATE (MM/YY)
API . 49-005-30258-0000 : API NUMBER
SRVC.                   : SERVICE COMPANY
~Curve Information -----------------------------------------
DEPT.F     : 1 DEPTH
DT  .US/F  : 2 SONIC DELTA-T
RESD.OHMM  : 3 DEEP RESISTIVITY
SP  .MV    : 4 SP CURVE
GR  .GAPI  : 5 GAMMA RAY
~Params ----------------------------------------------------
BHT .DEGF 194.0 : BOTTOM HOLE TEMPERATURE
RMF .OHMM 0.441 : MUD FILTRATE RESISTIVITY
RMFT.DEGF  68.0 : MEASURE TEMPERATURE OF RMF
EKB .F   4642.0 : ELEVATION KELLY BUSHING
SECT.        36 : SECTION
TOWN.       47N : TOWNSHIP
RANG.       71W : RANGE
~Other -----------------------------------------------------
~ASCII -----------------------------------------------------
 10180.00000   59.90000   22.00000   45.60000  116.00000
 10181.00000   59.90000   21.00000   49.00000  114.00000
 10182.00000   60.50000   19.70000   53.00000  127.00000
 10183.00000   63.50000   18.90000   55.60000  150.00000
 10184.00000   64.50000   18.20000   58.40000  155.00000
 10185.00000   64.60000   18.00000   62.50000  140.00000
 10186.00000   61.50000   18.00000   64.70000  121.00000
 10187.00000   59.20000   21.00000   66.90000  106.00000
 10188.00000   55.90000   29.00000   69.30000   62.00000
 10189.00000   52.10000   53.00000   71.30000   25.00000
 10190.00000   49.10000  390.00000   73.70000    9.00000
 10191.00000   47.80000 1501.00000   75.70000   11.00000
 10192.00000   47.20000 2093.00000   76.70000   11.00000
 10193.00000   47.20000 1677.00000   77.10000   10.00000
 10194.00000   48.50000 1077.00000   77.50000    9.00000
 10195.00000   49.60000  765.00000   77.50000    8.00000
 10196.00000   48.30000  564.00000   77.50000    8.00000
 10197.00000   46.90000  554.00000   77.50000    8.00000
 10198.00000   46.60000  487.00000   77.10000   10.00000
 10199.00000   46.80000  159.00000   76.50000   15.00000
 10200.00000   46.70000   74.00000   75.90000   16.00000
 10201.00000   47.80000   57.00000   74.70000   14.00000
 10202.00000   51.20000   50.00000   73.70000   14.00000
 10203.00000   51.60000   48.00000   71.10000   18.00000
 10204.00000   51.10000   48.00000   67.30000   23.00000
 10205.00000   51.40000   49.00000   63.70000   27.00000
 10206.00000   52.30000   56.00000   60.60000   28.00000
 10207.00000   52.30000   59.00000   57.80000   20.00000
 10208.00000   51.50000   61.00000   53.20000   17.00000
 10209.00000   51.20000   52.00000   48.20000   72.00000
 10210.00000   53.30000   24.00000   42.90000  109.00000
 10211.00000   57.60000   17.50000   37.90000  131.00000
 10212.00000   60.60000   15.40000   34.50000  135.00000
 10213.00000   60.80000   15.20000   31.70000  122.00000
 10214.00000   59.50000   15.20000   30.10000  119.00000
 10215.00000   59.70000   15.20000   28.50000  128.00000
 10216.00000   61.10000   14.70000   27.20000  135.00000
 10217.00000   61.60000   12.90000   26.00000  138.00000
 10218.00000   61.80000   12.00000   24.40000  139.00000
 10219.00000   62.00000   11.00000   23.40000  139.00000
 10220.00000   62.20000   10.60000   22.20000  135.00000
 10221.00000   62.20000   10.50000   21.20000  135.00000
 10222.00000   62.20000   10.50000   20.80000  129.00000
 10223.00000   60.90000   10.80000   20.20000  119.00000
 10224.00000   60.80000   11.10000   19.80000  123.00000
 10225.00000   61.50000   11.20000   19.20000  116.00000
 10226.00000   61.40000   10.70000   19.00000  118.00000
 10227.00000   61.90000    9.90000   19.00000  135.00000
 10228.00000   63.20000    9.30000   18.80000  149.00000
 10229.00000   64.40000    9.00000   18.60000  153.00000
 10230.00000   62.60000    9.40000   18.40000  120.00000
 10231.00000   61.40000   10.10000   18.20000  108.00000
 10232.00000   61.00000   10.20000   18.20000  105.00000
 10233.00000   61.10000   10.00000   18.20000  116.00000
 10234.00000   62.80000    8.00000   18.20000  134.00000
 10235.00000   65.40000    7.10000   18.20000  138.00000
 10236.00000   66.30000    6.50000   18.80000  132.00000
 10237.00000   66.20000    5.80000   19.40000  131.00000
 10238.00000   68.30000    5.00000   20.40000  135.00000
 10239.00000   69.80000    4.20000   21.60000  140.00000
 10240.00000   70.60000    3.60000   22.40000  144.00000
 10241.00000   72.40000    3.30000   23.80000  129.00000
 10242.00000   74.20000    3.20000   25.00000  118.00000
 10243.00000   74.30000    3.30000   26.40000  119.00000
 10244.00000   71.50000    4.00000   28.00000  114.00000
 10245.00000   63.50000    4.90000   29.30000   87.00000
 10246.00000   60.10000    5.40000   30.50000   80.00000
 10247.00000   65.20000    5.80000   31.30000   99.00000
 10248.00000   68.20000    6.20000   32.70000   99.00000
 10249.00000   66.40000    6.60000   33.50000   89.00000
 10250.00000   63.20000    7.60000   34.30000  100.00000
 10251.00000   63.40000    8.90000   34.90000  118.00000
 10252.00000   65.30000   10.10000   35.70000  124.00000
 10253.00000   65.10000   11.20000   36.10000  117.00000
 10254.00000   64.10000   12.40000   36.10000  120.00000
 10255.00000   63.90000   15.10000   36.30000  123.00000
 10256.00000   63.90000   16.60000   36.30000  124.00000
 10257.00000   63.90000   17.50000   36.30000  123.00000
 10258.00000   63.90000   18.00000   36.30000  120.00000
 10259.00000   63.50000   18.00000   36.30000  120.00000
 10260.00000   62.70000   18.00000   36.30000  125.00000
 10261.00000   63.10000   18.00000   36.30000  130.00000
 10262.00000   63.60000   19.00000   36.30000  126.00000
 10263.00000   61.10000   21.00000   36.30000  113.00000
 10264.00000   58.40000   23.00000   36.90000  100.00000
 10265.00000   58.10000   27.00000   37.90000   90.00000
 10266.00000   58.10000   30.00000   38.50000   78.00000
 10267.00000   57.70000   33.00000   39.70000   66.00000
 10268.00000   57.10000   35.00000   40.10000   69.00000
 10269.00000   56.60000   35.00000   40.50000   96.00000
 10270.00000   56.80000   30.00000   40.50000  103.00000
 10271.00000   59.50000   27.00000   40.70000  113.00000
 10272.00000   61.30000   23.00000   40.90000  122.00000
 10273.00000   61.90000   19.90000   40.90000  122.00000
 10274.00000   61.90000   18.90000   41.10000  117.00000
 10275.00000   62.10000   18.50000   41.10000  118.00000
 10276.00000   62.50000   19.40000   41.10000  120.00000
 10277.00000   62.50000   20.00000   41.30000  119.00000
 10278.00000   62.50000   20.00000   41.70000  122.00000
 10279.00000   62.40000   22.00000   42.10000  130.00000
 10280.00000   62.00000   24.00000   42.90000  124.00000
 10281.00000   60.70000   26.00000   43.90000   87.00000
 10282.00000   57.50000   30.00000   44.70000   53.00000
 10283.00000   56.00000   33.00000   45.60000   46.00000
 10284.00000   56.00000   34.00000   46.60000   58.00000
 10285.00000   57.80000   30.00000   47.20000   83.00000
 10286.00000   60.00000   28.00000   48.00000  100.00000
 10287.00000   60.30000   26.00000   48.60000  101.00000
 10288.00000   60.20000   26.00000   50.20000   92.00000
 10289.00000   59.90000   29.00000   51.20000   85.00000
 10290.00000   60.40000   34.00000   52.80000   99.00000
 10291.00000   60.90000   35.00000   54.20000  105.00000
 10292.00000   61.40000   39.00000   55.20000  107.00000
 10293.00000   61.40000   44.00000   56.00000   97.00000
 10294.00000   56.10000   66.00000   57.20000   62.00000
 10295.00000   51.20000  122.00000   58.00000   46.00000
 10296.00000   48.40000  248.00000   59.00000   45.00000
 10297.00000   48.50000 1724.00000   59.60000   33.00000
 10298.00000   49.80000 2036.00000   60.80000   23.00000
 10299.00000   49.80000 2036.00000   62.30000   20.00000
 10300.00000   50.00000 2055.00000   63.50000   15.00000
 10301.00000   50.90000 2093.00000   64.70000   11.00000
 10302.00000   50.50000 2113.00000   66.30000   13.00000
 10303.00000   47.90000 2113.00000   67.70000   16.00000
 10304.00000   46.30000 2113.00000   68.90000   21.00000
 10305.00000   46.10000 2093.00000   70.70000   30.00000
 10306.00000   46.40000 1631.00000   72.10000   38.00000
 10307.00000   46.40000  751.00000   73.10000   39.00000
 10308.00000   45.80000  250.00000   74.50000   35.00000
 10309.00000   45.90000  216.00000   75.90000   30.00000
 10310.00000   46.50000  199.00000   77.30000   25.00000
 10311.00000   46.70000  176.00000   78.80000   24.00000
 10312.00000   47.30000  130.00000   80.80000   27.00000
 10313.00000   51.90000   95.00000   83.40000   21.00000
 10314.00000   55.70000   69.00000   85.40000   17.00000
 10315.00000   61.20000   47.00000   87.60000   16.00000
 10316.00000   66.50000   31.00000   89.80000   16.00000
 10317.00000   68.90000   21.00000   91.40000   18.00000
 10318.00000   69.60000   17.50000   93.40000   19.00000
 10319.00000   69.60000   16.10000   94.20000   19.00000
 10320.00000   69.10000   16.10000   95.10000   16.00000
